{
"type": "FeatureCollection",
"name": "ttcstops",
"crs": { "type": "name", "properties": { "name": "urn:ogc:def:crs:OGC:1.3:CRS84" } },
"features": [
{ "type": "Feature", "properties": { "LOCATION_N": "Kipling", "STATUS": "Existing", "TECHNOLOGY": "Subway", "NAME": "Line 2: Bloor-Danforth Subway" }, "geometry": { "type": "Point", "coordinates": [ -79.536279963741507, 43.636943838354725 ] } },
{ "type": "Feature", "properties": { "LOCATION_N": "Islington", "STATUS": "Existing", "TECHNOLOGY": "Subway", "NAME": "Line 2: Bloor-Danforth Subway" }, "geometry": { "type": "Point", "coordinates": [ -79.524597445767355, 43.645333277840514 ] } },
{ "type": "Feature", "properties": { "LOCATION_N": "Royal York", "STATUS": "Existing", "TECHNOLOGY": "Subway", "NAME": "Line 2: Bloor-Danforth Subway" }, "geometry": { "type": "Point", "coordinates": [ -79.511289493304702, 43.648122856760232 ] } },
{ "type": "Feature", "properties": { "LOCATION_N": "Old Mill", "STATUS": "Existing", "TECHNOLOGY": "Subway", "NAME": "Line 2: Bloor-Danforth Subway" }, "geometry": { "type": "Point", "coordinates": [ -79.495093795216789, 43.650083196188476 ] } },
{ "type": "Feature", "properties": { "LOCATION_N": "Jane", "STATUS": "Existing", "TECHNOLOGY": "Subway", "NAME": "Line 2: Bloor-Danforth Subway" }, "geometry": { "type": "Point", "coordinates": [ -79.484462859106955, 43.649795825091822 ] } },
{ "type": "Feature", "properties": { "LOCATION_N": "Runnymede", "STATUS": "Existing", "TECHNOLOGY": "Subway", "NAME": "Line 2: Bloor-Danforth Subway" }, "geometry": { "type": "Point", "coordinates": [ -79.476207523689268, 43.651663652330654 ] } },
{ "type": "Feature", "properties": { "LOCATION_N": "High Park", "STATUS": "Existing", "TECHNOLOGY": "Subway", "NAME": "Line 2: Bloor-Danforth Subway" }, "geometry": { "type": "Point", "coordinates": [ -79.466224313487942, 43.654058700220716 ] } },
{ "type": "Feature", "properties": { "LOCATION_N": "Keele", "STATUS": "Existing", "TECHNOLOGY": "Subway", "NAME": "Line 2: Bloor-Danforth Subway" }, "geometry": { "type": "Point", "coordinates": [ -79.459854210308876, 43.655475281406979 ] } },
{ "type": "Feature", "properties": { "LOCATION_N": "Dundas West", "STATUS": "Existing", "TECHNOLOGY": "Subway", "NAME": "Line 2: Bloor-Danforth Subway" }, "geometry": { "type": "Point", "coordinates": [ -79.452411936657001, 43.657180866306469 ] } },
{ "type": "Feature", "properties": { "LOCATION_N": "Lansdowne", "STATUS": "Existing", "TECHNOLOGY": "Subway", "NAME": "Line 2: Bloor-Danforth Subway" }, "geometry": { "type": "Point", "coordinates": [ -79.44262387665961, 43.659126637717989 ] } },
{ "type": "Feature", "properties": { "LOCATION_N": "Dufferin", "STATUS": "Existing", "TECHNOLOGY": "Subway", "NAME": "Line 2: Bloor-Danforth Subway" }, "geometry": { "type": "Point", "coordinates": [ -79.435489661887601, 43.660251222702996 ] } },
{ "type": "Feature", "properties": { "LOCATION_N": "Ossington", "STATUS": "Existing", "TECHNOLOGY": "Subway", "NAME": "Line 2: Bloor-Danforth Subway" }, "geometry": { "type": "Point", "coordinates": [ -79.425938496897444, 43.662424895383133 ] } },
{ "type": "Feature", "properties": { "LOCATION_N": "Christie", "STATUS": "Existing", "TECHNOLOGY": "Subway", "NAME": "Line 2: Bloor-Danforth Subway" }, "geometry": { "type": "Point", "coordinates": [ -79.41834650686539, 43.664077759308547 ] } },
{ "type": "Feature", "properties": { "LOCATION_N": "Bathurst", "STATUS": "Existing", "TECHNOLOGY": "Subway", "NAME": "Line 2: Bloor-Danforth Subway" }, "geometry": { "type": "Point", "coordinates": [ -79.411490508315779, 43.665725240415711 ] } },
{ "type": "Feature", "properties": { "LOCATION_N": "St. George", "STATUS": "Existing", "TECHNOLOGY": "Subway", "NAME": "Line 1: Yonge-University Subway" }, "geometry": { "type": "Point", "coordinates": [ -79.399307859293998, 43.668283547722076 ] } },
{ "type": "Feature", "properties": { "LOCATION_N": "Bay", "STATUS": "Existing", "TECHNOLOGY": "Subway", "NAME": "Line 2: Bloor-Danforth Subway" }, "geometry": { "type": "Point", "coordinates": [ -79.389869078057686, 43.670215070404041 ] } },
{ "type": "Feature", "properties": { "LOCATION_N": "Bloor-Yonge", "STATUS": "Existing", "TECHNOLOGY": "Subway", "NAME": "Line 1: Yonge-University Subway" }, "geometry": { "type": "Point", "coordinates": [ -79.385721340465992, 43.671003938058213 ] } },
{ "type": "Feature", "properties": { "LOCATION_N": "Sherbourne", "STATUS": "Existing", "TECHNOLOGY": "Subway", "NAME": "Line 2: Bloor-Danforth Subway" }, "geometry": { "type": "Point", "coordinates": [ -79.376846984196547, 43.672362493575619 ] } },
{ "type": "Feature", "properties": { "LOCATION_N": "Castle Frank", "STATUS": "Existing", "TECHNOLOGY": "Subway", "NAME": "Line 2: Bloor-Danforth Subway" }, "geometry": { "type": "Point", "coordinates": [ -79.368497458306265, 43.673867078739917 ] } },
{ "type": "Feature", "properties": { "LOCATION_N": "Broadview", "STATUS": "Existing", "TECHNOLOGY": "Subway", "NAME": "Line 2: Bloor-Danforth Subway" }, "geometry": { "type": "Point", "coordinates": [ -79.358787615475848, 43.676838512052576 ] } },
{ "type": "Feature", "properties": { "LOCATION_N": "Chester", "STATUS": "Existing", "TECHNOLOGY": "Subway", "NAME": "Line 2: Bloor-Danforth Subway" }, "geometry": { "type": "Point", "coordinates": [ -79.352258129375542, 43.678349976450662 ] } },
{ "type": "Feature", "properties": { "LOCATION_N": "Pape", "STATUS": "Existing", "TECHNOLOGY": "Subway", "NAME": "Line 2: Bloor-Danforth Subway" }, "geometry": { "type": "Point", "coordinates": [ -79.345177202270165, 43.67974099416643 ] } },
{ "type": "Feature", "properties": { "LOCATION_N": "Donlands", "STATUS": "Existing", "TECHNOLOGY": "Subway", "NAME": "Line 2: Bloor-Danforth Subway" }, "geometry": { "type": "Point", "coordinates": [ -79.337782945474416, 43.681184391224114 ] } },
{ "type": "Feature", "properties": { "LOCATION_N": "Greenwood", "STATUS": "Existing", "TECHNOLOGY": "Subway", "NAME": "Line 2: Bloor-Danforth Subway" }, "geometry": { "type": "Point", "coordinates": [ -79.330285118502601, 43.68281084196699 ] } },
{ "type": "Feature", "properties": { "LOCATION_N": "Coxwell", "STATUS": "Existing", "TECHNOLOGY": "Subway", "NAME": "Line 2: Bloor-Danforth Subway" }, "geometry": { "type": "Point", "coordinates": [ -79.323100387333085, 43.684332709952997 ] } },
{ "type": "Feature", "properties": { "LOCATION_N": "Woodbine", "STATUS": "Existing", "TECHNOLOGY": "Subway", "NAME": "Line 2: Bloor-Danforth Subway" }, "geometry": { "type": "Point", "coordinates": [ -79.312988532599377, 43.6865499370791 ] } },
{ "type": "Feature", "properties": { "LOCATION_N": "Main Street", "STATUS": "Existing", "TECHNOLOGY": "Subway", "NAME": "Line 2: Bloor-Danforth Subway" }, "geometry": { "type": "Point", "coordinates": [ -79.302015836230069, 43.688982285675884 ] } },
{ "type": "Feature", "properties": { "LOCATION_N": "Victoria Park", "STATUS": "Existing", "TECHNOLOGY": "Subway", "NAME": "Line 2: Bloor-Danforth Subway" }, "geometry": { "type": "Point", "coordinates": [ -79.289450037058316, 43.694621486879328 ] } },
{ "type": "Feature", "properties": { "LOCATION_N": "Warden", "STATUS": "Existing", "TECHNOLOGY": "Subway", "NAME": "Line 2: Bloor-Danforth Subway" }, "geometry": { "type": "Point", "coordinates": [ -79.279204972269468, 43.711186750072599 ] } },
{ "type": "Feature", "properties": { "LOCATION_N": "Kennedy", "STATUS": "Existing", "TECHNOLOGY": "Subway", "NAME": "Line 2: Bloor-Danforth Subway" }, "geometry": { "type": "Point", "coordinates": [ -79.264532363275194, 43.732266101735114 ] } },
{ "type": "Feature", "properties": { "LOCATION_N": "Union", "STATUS": "Existing", "TECHNOLOGY": "Subway", "NAME": "Line 1: Yonge-University Subway" }, "geometry": { "type": "Point", "coordinates": [ -79.379135559797618, 43.646021901663183 ] } },
{ "type": "Feature", "properties": { "LOCATION_N": "St. Andrew", "STATUS": "Existing", "TECHNOLOGY": "Subway", "NAME": "Line 1: Yonge-University Subway" }, "geometry": { "type": "Point", "coordinates": [ -79.384795646063822, 43.647662366214853 ] } },
{ "type": "Feature", "properties": { "LOCATION_N": "King", "STATUS": "Existing", "TECHNOLOGY": "Subway", "NAME": "Line 1: Yonge-University Subway" }, "geometry": { "type": "Point", "coordinates": [ -79.377907605213437, 43.649149352013737 ] } },
{ "type": "Feature", "properties": { "LOCATION_N": "Osgoode", "STATUS": "Existing", "TECHNOLOGY": "Subway", "NAME": "Line 1: Yonge-University Subway" }, "geometry": { "type": "Point", "coordinates": [ -79.386618655733713, 43.650856327180733 ] } },
{ "type": "Feature", "properties": { "LOCATION_N": "Queen", "STATUS": "Existing", "TECHNOLOGY": "Subway", "NAME": "Line 1: Yonge-University Subway" }, "geometry": { "type": "Point", "coordinates": [ -79.379256634250368, 43.652439240452445 ] } },
{ "type": "Feature", "properties": { "LOCATION_N": "St. Patrick", "STATUS": "Existing", "TECHNOLOGY": "Subway", "NAME": "Line 1: Yonge-University Subway" }, "geometry": { "type": "Point", "coordinates": [ -79.38830576848008, 43.65479390032494 ] } },
{ "type": "Feature", "properties": { "LOCATION_N": "Dundas", "STATUS": "Existing", "TECHNOLOGY": "Subway", "NAME": "Line 1: Yonge-University Subway" }, "geometry": { "type": "Point", "coordinates": [ -79.380914549357286, 43.656327401261159 ] } },
{ "type": "Feature", "properties": { "LOCATION_N": "Queen's Park", "STATUS": "Existing", "TECHNOLOGY": "Subway", "NAME": "Line 1: Yonge-University Subway" }, "geometry": { "type": "Point", "coordinates": [ -79.390466217022052, 43.65985799872778 ] } },
{ "type": "Feature", "properties": { "LOCATION_N": "College", "STATUS": "Existing", "TECHNOLOGY": "Subway", "NAME": "Line 1: Yonge-University Subway" }, "geometry": { "type": "Point", "coordinates": [ -79.383142532089423, 43.661453395902249 ] } },
{ "type": "Feature", "properties": { "LOCATION_N": "Wellesley", "STATUS": "Existing", "TECHNOLOGY": "Subway", "NAME": "Line 1: Yonge-University Subway" }, "geometry": { "type": "Point", "coordinates": [ -79.383527557422951, 43.665268428649341 ] } },
{ "type": "Feature", "properties": { "LOCATION_N": "Museum", "STATUS": "Existing", "TECHNOLOGY": "Subway", "NAME": "Line 1: Yonge-University Subway" }, "geometry": { "type": "Point", "coordinates": [ -79.393566344735774, 43.667368989978343 ] } },
{ "type": "Feature", "properties": { "LOCATION_N": "Rosedale", "STATUS": "Existing", "TECHNOLOGY": "Subway", "NAME": "Line 1: Yonge-University Subway" }, "geometry": { "type": "Point", "coordinates": [ -79.388524351915308, 43.677095901262078 ] } },
{ "type": "Feature", "properties": { "LOCATION_N": "Summerhill", "STATUS": "Existing", "TECHNOLOGY": "Subway", "NAME": "Line 1: Yonge-University Subway" }, "geometry": { "type": "Point", "coordinates": [ -79.39124599013212, 43.683342619032018 ] } },
{ "type": "Feature", "properties": { "LOCATION_N": "St. Clair", "STATUS": "Existing", "TECHNOLOGY": "Subway", "NAME": "Line 1: Yonge-University Subway" }, "geometry": { "type": "Point", "coordinates": [ -79.393400944710692, 43.688302583630524 ] } },
{ "type": "Feature", "properties": { "LOCATION_N": "Davisville", "STATUS": "Existing", "TECHNOLOGY": "Subway", "NAME": "Line 1: Yonge-University Subway" }, "geometry": { "type": "Point", "coordinates": [ -79.397267395405322, 43.697986518443258 ] } },
{ "type": "Feature", "properties": { "LOCATION_N": "Eglinton", "STATUS": "Existing", "TECHNOLOGY": "Subway", "NAME": "Line 1: Yonge-University Subway" }, "geometry": { "type": "Point", "coordinates": [ -79.398438168448877, 43.706726878677124 ] } },
{ "type": "Feature", "properties": { "LOCATION_N": "Lawrence", "STATUS": "Existing", "TECHNOLOGY": "Subway", "NAME": "Line 1: Yonge-University Subway" }, "geometry": { "type": "Point", "coordinates": [ -79.402178327991578, 43.724957385448896 ] } },
{ "type": "Feature", "properties": { "LOCATION_N": "York Mills", "STATUS": "Existing", "TECHNOLOGY": "Subway", "NAME": "Line 1: Yonge-University Subway" }, "geometry": { "type": "Point", "coordinates": [ -79.406201310683642, 43.744271469835191 ] } },
{ "type": "Feature", "properties": { "LOCATION_N": "Sheppard-Yonge", "STATUS": "Existing", "TECHNOLOGY": "Subway", "NAME": "Line 1: Yonge-University Subway" }, "geometry": { "type": "Point", "coordinates": [ -79.410923903091998, 43.761521806830537 ] } },
{ "type": "Feature", "properties": { "LOCATION_N": "North York Centre", "STATUS": "Existing", "TECHNOLOGY": "Subway", "NAME": "Line 1: Yonge-University Subway" }, "geometry": { "type": "Point", "coordinates": [ -79.412775578399476, 43.768840102252206 ] } },
{ "type": "Feature", "properties": { "LOCATION_N": "Finch", "STATUS": "Existing", "TECHNOLOGY": "Subway", "NAME": "Line 1: Yonge-University Subway" }, "geometry": { "type": "Point", "coordinates": [ -79.415570207680361, 43.779770611576808 ] } },
{ "type": "Feature", "properties": { "LOCATION_N": "Spadina", "STATUS": "Existing", "TECHNOLOGY": "Subway", "NAME": "Line 1: Yonge-University Subway" }, "geometry": { "type": "Point", "coordinates": [ -79.404762438573769, 43.668962141206585 ] } },
{ "type": "Feature", "properties": { "LOCATION_N": "Dupont", "STATUS": "Existing", "TECHNOLOGY": "Subway", "NAME": "Line 1: Yonge-University Subway" }, "geometry": { "type": "Point", "coordinates": [ -79.407110503437153, 43.674856393231401 ] } },
{ "type": "Feature", "properties": { "LOCATION_N": "St Clair West", "STATUS": "Existing", "TECHNOLOGY": "Subway", "NAME": "Line 1: Yonge-University Subway" }, "geometry": { "type": "Point", "coordinates": [ -79.415338886793123, 43.683823864125984 ] } },
{ "type": "Feature", "properties": { "LOCATION_N": "Eglinton West", "STATUS": "Existing", "TECHNOLOGY": "Subway", "NAME": "Line 1: Yonge-University Subway" }, "geometry": { "type": "Point", "coordinates": [ -79.435994637409749, 43.698836244912314 ] } },
{ "type": "Feature", "properties": { "LOCATION_N": "Glencairn", "STATUS": "Existing", "TECHNOLOGY": "Subway", "NAME": "Line 1: Yonge-University Subway" }, "geometry": { "type": "Point", "coordinates": [ -79.441182427505979, 43.709540531219567 ] } },
{ "type": "Feature", "properties": { "LOCATION_N": "Lawrence West", "STATUS": "Existing", "TECHNOLOGY": "Subway", "NAME": "Line 1: Yonge-University Subway" }, "geometry": { "type": "Point", "coordinates": [ -79.444189433775847, 43.716064609572726 ] } },
{ "type": "Feature", "properties": { "LOCATION_N": "Yorkdale", "STATUS": "Existing", "TECHNOLOGY": "Subway", "NAME": "Line 1: Yonge-University Subway" }, "geometry": { "type": "Point", "coordinates": [ -79.447868489772134, 43.725615657193615 ] } },
{ "type": "Feature", "properties": { "LOCATION_N": "Wilson", "STATUS": "Existing", "TECHNOLOGY": "Subway", "NAME": "Line 1: Yonge-University Subway" }, "geometry": { "type": "Point", "coordinates": [ -79.449920980694898, 43.734093180247044 ] } },
{ "type": "Feature", "properties": { "LOCATION_N": "Sheppard West", "STATUS": "Existing", "TECHNOLOGY": "Subway", "NAME": "Line 1: Yonge-University Subway" }, "geometry": { "type": "Point", "coordinates": [ -79.462475464169017, 43.750438450391414 ] } },
{ "type": "Feature", "properties": { "LOCATION_N": "Bayview", "STATUS": "Existing", "TECHNOLOGY": "Subway", "NAME": "Line 4: Sheppard Subway" }, "geometry": { "type": "Point", "coordinates": [ -79.387755742653312, 43.766663445395238 ] } },
{ "type": "Feature", "properties": { "LOCATION_N": "Bessarion", "STATUS": "Existing", "TECHNOLOGY": "Subway", "NAME": "Line 4: Sheppard Subway" }, "geometry": { "type": "Point", "coordinates": [ -79.376652369854668, 43.769193809223012 ] } },
{ "type": "Feature", "properties": { "LOCATION_N": "Leslie", "STATUS": "Existing", "TECHNOLOGY": "Subway", "NAME": "Line 4: Sheppard Subway" }, "geometry": { "type": "Point", "coordinates": [ -79.368136395932154, 43.771024496894611 ] } },
{ "type": "Feature", "properties": { "LOCATION_N": "Don Mills", "STATUS": "Existing", "TECHNOLOGY": "Subway", "NAME": "Line 4: Sheppard Subway" }, "geometry": { "type": "Point", "coordinates": [ -79.346976001746995, 43.775143626666704 ] } },
{ "type": "Feature", "properties": { "LOCATION_N": "Downsview Park", "STATUS": "Existing", "TECHNOLOGY": "Subway", "NAME": "Line 1: Yonge-University Subway" }, "geometry": { "type": "Point", "coordinates": [ -79.478333892742853, 43.753606512225367 ] } },
{ "type": "Feature", "properties": { "LOCATION_N": "Finch West", "STATUS": "Existing", "TECHNOLOGY": "Subway", "NAME": "Line 1: Yonge-University Subway" }, "geometry": { "type": "Point", "coordinates": [ -79.490986782053199, 43.763490496298985 ] } },
{ "type": "Feature", "properties": { "LOCATION_N": "York University", "STATUS": "Existing", "TECHNOLOGY": "Subway", "NAME": "Line 1: Yonge-University Subway" }, "geometry": { "type": "Point", "coordinates": [ -79.499644727595552, 43.77412869603959 ] } },
{ "type": "Feature", "properties": { "LOCATION_N": "Pioneer Village", "STATUS": "Existing", "TECHNOLOGY": "Subway", "NAME": "Line 1: Yonge-University Subway" }, "geometry": { "type": "Point", "coordinates": [ -79.511635307136203, 43.777522527029312 ] } },
{ "type": "Feature", "properties": { "LOCATION_N": "Highway 407", "STATUS": "Existing", "TECHNOLOGY": "Subway", "NAME": "Line 1: Yonge-University Subway" }, "geometry": { "type": "Point", "coordinates": [ -79.523236728128168, 43.783556163356245 ] } },
{ "type": "Feature", "properties": { "LOCATION_N": "Vaughan Metropolitan Centre", "STATUS": "Existing", "TECHNOLOGY": "Subway", "NAME": "Line 1: Yonge-University Subway" }, "geometry": { "type": "Point", "coordinates": [ -79.527273641238139, 43.793513826936689 ] } },
{ "type": "Feature", "properties": { "LOCATION_N": "Sheppard-Yonge", "STATUS": "Existing", "TECHNOLOGY": "Subway", "NAME": "Line 4: Sheppard Subway" }, "geometry": { "type": "Point", "coordinates": [ -79.410923903091998, 43.761521806830537 ] } },
{ "type": "Feature", "properties": { "LOCATION_N": "Spadina", "STATUS": "Existing", "TECHNOLOGY": "Subway", "NAME": "Line 2: Bloor-Danforth Subway" }, "geometry": { "type": "Point", "coordinates": [ -79.403973058014387, 43.667288970818554 ] } },
{ "type": "Feature", "properties": { "LOCATION_N": "St. George", "STATUS": "Existing", "TECHNOLOGY": "Subway", "NAME": "Line 2: Bloor-Danforth Subway" }, "geometry": { "type": "Point", "coordinates": [ -79.399307859293998, 43.668283547722076 ] } },
{ "type": "Feature", "properties": { "LOCATION_N": "Bloor-Yonge", "STATUS": "Existing", "TECHNOLOGY": "Subway", "NAME": "Line 2: Bloor-Danforth Subway" }, "geometry": { "type": "Point", "coordinates": [ -79.385721340465992, 43.671003938058213 ] } }
]
}
